%time,Real Time UTC,field.latitude,field.longitude
1.53531172211448E+018,29/08/2018 11:28:42,50.8206367493,-1.3099066019
1.53531172218863E+018,29/08/2018 11:28:42,50.8206367493,-1.3099066019
1.53531172225846E+018,29/08/2018 11:28:42,50.8206367493,-1.3099066019
1.53531172233552E+018,29/08/2018 11:28:42,50.8206367493,-1.3099066019
1.53531172240577E+018,29/08/2018 11:28:42,50.8206367493,-1.3099066019
1.53531172248264E+018,29/08/2018 11:28:42,50.8206367493,-1.3099066019
1.53531172255341E+018,29/08/2018 11:28:43,50.8206367493,-1.3099066019
1.53531172263101E+018,29/08/2018 11:28:43,50.8206367493,-1.3099066019
1.5353117227011E+018,29/08/2018 11:28:43,50.8206367493,-1.3099066019
1.53531172278027E+018,29/08/2018 11:28:43,50.8206367493,-1.3099066019
1.53531172284874E+018,29/08/2018 11:28:43,50.8206367493,-1.3099050522
1.53531172292714E+018,29/08/2018 11:28:43,50.8206367493,-1.3099050522
1.53531172299618E+018,29/08/2018 11:28:43,50.8206367493,-1.3099050522
1.53531172307478E+018,29/08/2018 11:28:43,50.8206367493,-1.3099050522
1.53531172314343E+018,29/08/2018 11:28:43,50.8206367493,-1.3099050522
1.53531172321749E+018,29/08/2018 11:28:43,50.8206367493,-1.3099050522
1.53531172329063E+018,29/08/2018 11:28:43,50.8206367493,-1.3099050522
1.53531172336474E+018,29/08/2018 11:28:43,50.8206367493,-1.3099050522
1.5353117234342E+018,29/08/2018 11:28:43,50.8206367493,-1.3099050522
1.53531172351238E+018,29/08/2018 11:28:44,50.8206367493,-1.3099050522
1.53531172358218E+018,29/08/2018 11:28:44,50.8206367493,-1.3099050522
1.53531172365964E+018,29/08/2018 11:28:44,50.8206367493,-1.3099050522
1.53531172373033E+018,29/08/2018 11:28:44,50.8206367493,-1.3099050522
1.53531172380936E+018,29/08/2018 11:28:44,50.8206367493,-1.3099050522
1.53531172387742E+018,29/08/2018 11:28:44,50.8206291199,-1.3099066019
1.53531172395504E+018,29/08/2018 11:28:44,50.8206291199,-1.3099066019
1.53531172402389E+018,29/08/2018 11:28:44,50.8206291199,-1.3099066019
1.53531172410653E+018,29/08/2018 11:28:44,50.8206291199,-1.3099066019
1.53531172417193E+018,29/08/2018 11:28:44,50.8206291199,-1.3099066019
1.5353117242499E+018,29/08/2018 11:28:44,50.8206291199,-1.3099066019
1.53531172431965E+018,29/08/2018 11:28:44,50.8206291199,-1.3099066019
1.5353117243935E+018,29/08/2018 11:28:44,50.8206291199,-1.3099066019
1.53531172446615E+018,29/08/2018 11:28:44,50.8206291199,-1.3099066019
1.53531172454088E+018,29/08/2018 11:28:45,50.8206291199,-1.3099066019
1.53531172461083E+018,29/08/2018 11:28:45,50.8206291199,-1.3099066019
1.53531172468799E+018,29/08/2018 11:28:45,50.8206291199,-1.3099066019
1.53531172475755E+018,29/08/2018 11:28:45,50.8206291199,-1.3099066019
1.53531172483563E+018,29/08/2018 11:28:45,50.8206291199,-1.3099066019
1.5353117249048E+018,29/08/2018 11:28:45,50.8206291199,-1.3099133968
1.53531172498287E+018,29/08/2018 11:28:45,50.8206291199,-1.3099133968
1.53531172505627E+018,29/08/2018 11:28:45,50.8206291199,-1.3099133968
1.53531172513075E+018,29/08/2018 11:28:45,50.8206291199,-1.3099133968
1.53531172520111E+018,29/08/2018 11:28:45,50.8206291199,-1.3099133968
1.53531172527767E+018,29/08/2018 11:28:45,50.8206291199,-1.3099133968
1.53531172534688E+018,29/08/2018 11:28:45,50.8206291199,-1.3099133968
1.53531172542446E+018,29/08/2018 11:28:45,50.8206291199,-1.3099133968
1.53531172549522E+018,29/08/2018 11:28:45,50.8206291199,-1.3099133968
1.53531172556832E+018,29/08/2018 11:28:46,50.8206291199,-1.3099133968
1.53531172563865E+018,29/08/2018 11:28:46,50.8206291199,-1.3099133968
1.53531172571597E+018,29/08/2018 11:28:46,50.8206291199,-1.3099133968
1.53531172578609E+018,29/08/2018 11:28:46,50.8206291199,-1.3099133968
1.53531172586462E+018,29/08/2018 11:28:46,50.8206291199,-1.3099133968
1.53531172593251E+018,29/08/2018 11:28:46,50.8206291199,-1.3099133968
1.53531172601069E+018,29/08/2018 11:28:46,50.8206291199,-1.3099133968
1.53531172607964E+018,29/08/2018 11:28:46,50.8206291199,-1.3099133968
1.53531172615763E+018,29/08/2018 11:28:46,50.8206291199,-1.3099133968
1.53531172622829E+018,29/08/2018 11:28:46,50.8206291199,-1.3099133968
1.53531172630664E+018,29/08/2018 11:28:46,50.8206291199,-1.3099133968
1.53531172637547E+018,29/08/2018 11:28:46,50.8206291199,-1.3099133968
1.53531172644856E+018,29/08/2018 11:28:46,50.8206291199,-1.3099133968
1.53531172652253E+018,29/08/2018 11:28:47,50.8206291199,-1.3099133968
1.53531172659698E+018,29/08/2018 11:28:47,50.8206291199,-1.3099133968
1.53531172667132E+018,29/08/2018 11:28:47,50.8206291199,-1.3099133968
1.5353117267432E+018,29/08/2018 11:28:47,50.8206291199,-1.3099133968
1.53531172681432E+018,29/08/2018 11:28:47,50.8206291199,-1.3099133968
1.53531172689355E+018,29/08/2018 11:28:47,50.8206138611,-1.3099333048
1.53531172696503E+018,29/08/2018 11:28:47,50.8206138611,-1.3099333048
1.53531172703923E+018,29/08/2018 11:28:47,50.8206138611,-1.3099333048
1.5353117271085E+018,29/08/2018 11:28:47,50.8206138611,-1.3099333048
1.53531172718721E+018,29/08/2018 11:28:47,50.8206138611,-1.3099333048
1.53531172725583E+018,29/08/2018 11:28:47,50.8206138611,-1.3099333048
1.53531172733437E+018,29/08/2018 11:28:47,50.8206138611,-1.3099333048
1.53531172740387E+018,29/08/2018 11:28:47,50.8206138611,-1.3099333048
1.53531172748106E+018,29/08/2018 11:28:47,50.8206138611,-1.3099333048
1.53531172755117E+018,29/08/2018 11:28:48,50.8206138611,-1.3099333048
1.53531172762355E+018,29/08/2018 11:28:48,50.8206138611,-1.3099333048
1.53531172769553E+018,29/08/2018 11:28:48,50.8206138611,-1.3099333048
1.53531172777192E+018,29/08/2018 11:28:48,50.8206138611,-1.3099333048
1.53531172784123E+018,29/08/2018 11:28:48,50.8206138611,-1.3099333048
1.53531172791993E+018,29/08/2018 11:28:48,50.8206138611,-1.3099333048
1.53531172798895E+018,29/08/2018 11:28:48,50.8206138611,-1.3099333048
1.53531172806703E+018,29/08/2018 11:28:48,50.8206138611,-1.3099333048
1.5353117281368E+018,29/08/2018 11:28:48,50.8206138611,-1.3099333048
1.53531172821415E+018,29/08/2018 11:28:48,50.8206138611,-1.3099333048
1.53531172828458E+018,29/08/2018 11:28:48,50.8206138611,-1.3099333048
1.53531172836131E+018,29/08/2018 11:28:48,50.8206138611,-1.3099333048
1.5353117284314E+018,29/08/2018 11:28:48,50.8206138611,-1.3099333048
1.53531172850641E+018,29/08/2018 11:28:49,50.8206138611,-1.3099333048
1.53531172857854E+018,29/08/2018 11:28:49,50.8206138611,-1.3099333048
1.53531172865247E+018,29/08/2018 11:28:49,50.8206138611,-1.3099333048
1.53531172872192E+018,29/08/2018 11:28:49,50.8206138611,-1.3099333048
1.53531172880185E+018,29/08/2018 11:28:49,50.8206138611,-1.3099333048
1.53531172887024E+018,29/08/2018 11:28:49,50.8206138611,-1.3099333048
1.53531172894697E+018,29/08/2018 11:28:49,50.8206138611,-1.3099333048
1.5353117290179E+018,29/08/2018 11:28:49,50.8206138611,-1.3099333048
1.53531172909563E+018,29/08/2018 11:28:49,50.8206138611,-1.3099333048
1.53531172916484E+018,29/08/2018 11:28:49,50.8206138611,-1.3099333048
1.53531172924305E+018,29/08/2018 11:28:49,50.8206138611,-1.3099333048
1.53531172931209E+018,29/08/2018 11:28:49,50.8206138611,-1.3099333048
1.5353117293858E+018,29/08/2018 11:28:49,50.8206138611,-1.3099333048
1.53531172945917E+018,29/08/2018 11:28:49,50.8206138611,-1.3099333048
1.53531172953327E+018,29/08/2018 11:28:50,50.8206138611,-1.3099333048
1.53531172960355E+018,29/08/2018 11:28:50,50.8206138611,-1.3099333048
1.53531172968056E+018,29/08/2018 11:28:50,50.8206138611,-1.3099333048
1.53531172974947E+018,29/08/2018 11:28:50,50.8206138611,-1.3099333048
1.53531172982818E+018,29/08/2018 11:28:50,50.8206138611,-1.3099333048
1.53531172989932E+018,29/08/2018 11:28:50,50.8206138611,-1.3099333048
1.53531172997544E+018,29/08/2018 11:28:50,50.8206138611,-1.3099333048
1.53531173004592E+018,29/08/2018 11:28:50,50.8206138611,-1.3099333048
1.53531173012325E+018,29/08/2018 11:28:50,50.8206138611,-1.3099333048
1.5353117301933E+018,29/08/2018 11:28:50,50.8206138611,-1.3099333048
1.53531173027068E+018,29/08/2018 11:28:50,50.8206138611,-1.3099333048
1.53531173034032E+018,29/08/2018 11:28:50,50.8206138611,-1.3099333048
1.53531173041447E+018,29/08/2018 11:28:50,50.8206138611,-1.3099333048
1.53531173048372E+018,29/08/2018 11:28:50,50.8206138611,-1.3099333048
1.53531173056029E+018,29/08/2018 11:28:51,50.8206138611,-1.3099333048
1.535311730631E+018,29/08/2018 11:28:51,50.8206138611,-1.3099333048
1.53531173070889E+018,29/08/2018 11:28:51,50.8206138611,-1.3099333048
1.53531173078254E+018,29/08/2018 11:28:51,50.8205909729,-1.3099600077
1.53531173086052E+018,29/08/2018 11:28:51,50.8205718994,-1.3099665642
1.53531173092903E+018,29/08/2018 11:28:51,50.8205718994,-1.3099665642
1.53531173100789E+018,29/08/2018 11:28:51,50.8205718994,-1.3099665642
1.53531173107757E+018,29/08/2018 11:28:51,50.8205718994,-1.3099665642
1.53531173115027E+018,29/08/2018 11:28:51,50.8205718994,-1.3099665642
1.53531173122504E+018,29/08/2018 11:28:51,50.8205718994,-1.3099665642
1.53531173130296E+018,29/08/2018 11:28:51,50.8205718994,-1.3099665642
1.53531173136765E+018,29/08/2018 11:28:51,50.8205718994,-1.3099665642
1.53531173144467E+018,29/08/2018 11:28:51,50.8205718994,-1.3099665642
1.53531173151569E+018,29/08/2018 11:28:52,50.8205718994,-1.3099665642
1.53531173159514E+018,29/08/2018 11:28:52,50.8205718994,-1.3099665642
1.53531173166405E+018,29/08/2018 11:28:52,50.8205718994,-1.3099665642
1.53531173173762E+018,29/08/2018 11:28:52,50.8205718994,-1.3099665642
1.53531173181099E+018,29/08/2018 11:28:52,50.8205718994,-1.3099665642
1.53531173188885E+018,29/08/2018 11:28:52,50.82056427,-1.309975028
1.53531173195891E+018,29/08/2018 11:28:52,50.82056427,-1.309975028
1.53531173203642E+018,29/08/2018 11:28:52,50.82056427,-1.309975028
1.53531173210499E+018,29/08/2018 11:28:52,50.82056427,-1.309975028
1.5353117321793E+018,29/08/2018 11:28:52,50.82056427,-1.309975028
1.53531173225238E+018,29/08/2018 11:28:52,50.82056427,-1.309975028
1.53531173232658E+018,29/08/2018 11:28:52,50.82056427,-1.309975028
1.53531173239588E+018,29/08/2018 11:28:52,50.82056427,-1.309975028
1.53531173247426E+018,29/08/2018 11:28:52,50.82056427,-1.309975028
1.53531173254273E+018,29/08/2018 11:28:53,50.82056427,-1.309975028
1.53531173262105E+018,29/08/2018 11:28:53,50.82056427,-1.309975028
1.53531173269107E+018,29/08/2018 11:28:53,50.82056427,-1.309975028
1.53531173276906E+018,29/08/2018 11:28:53,50.82056427,-1.309975028
1.53531173283776E+018,29/08/2018 11:28:53,50.8205566406,-1.3099865913
1.53531173291653E+018,29/08/2018 11:28:53,50.8205566406,-1.3099865913
1.53531173298547E+018,29/08/2018 11:28:53,50.8205566406,-1.3099865913
1.53531173306386E+018,29/08/2018 11:28:53,50.8205566406,-1.3099865913
1.5353117331337E+018,29/08/2018 11:28:53,50.8205566406,-1.3099865913
1.53531173321081E+018,29/08/2018 11:28:53,50.8205566406,-1.3099865913
1.53531173328054E+018,29/08/2018 11:28:53,50.8205566406,-1.3099865913
1.53531173335516E+018,29/08/2018 11:28:53,50.8205566406,-1.3099865913
1.53531173342717E+018,29/08/2018 11:28:53,50.8205566406,-1.3099865913
1.53531173350289E+018,29/08/2018 11:28:54,50.8205566406,-1.3099865913
1.5353117335709E+018,29/08/2018 11:28:54,50.8205566406,-1.3099865913
1.53531173364899E+018,29/08/2018 11:28:54,50.8205566406,-1.3099865913
1.53531173371935E+018,29/08/2018 11:28:54,50.8205566406,-1.3099865913
1.53531173379638E+018,29/08/2018 11:28:54,50.8205566406,-1.3099865913
1.53531173386669E+018,29/08/2018 11:28:54,50.8205566406,-1.3099865913
1.53531173394429E+018,29/08/2018 11:28:54,50.8205566406,-1.3099865913
1.53531173401373E+018,29/08/2018 11:28:54,50.8205566406,-1.3099865913
1.53531173409254E+018,29/08/2018 11:28:54,50.8205566406,-1.3099865913
1.5353117341609E+018,29/08/2018 11:28:54,50.8205566406,-1.3099865913
1.53531173423528E+018,29/08/2018 11:28:54,50.8205566406,-1.3099865913
1.53531173430693E+018,29/08/2018 11:28:54,50.8205566406,-1.3099865913
1.53531173438177E+018,29/08/2018 11:28:54,50.8205566406,-1.3099865913
1.53531173445198E+018,29/08/2018 11:28:54,50.8205566406,-1.3099865913
1.53531173452895E+018,29/08/2018 11:28:55,50.8205566406,-1.3099865913
1.53531173460248E+018,29/08/2018 11:28:55,50.8205566406,-1.3099865913
1.53531173467707E+018,29/08/2018 11:28:55,50.8205566406,-1.3099865913
1.53531173474713E+018,29/08/2018 11:28:55,50.8205566406,-1.3099865913
1.5353117348253E+018,29/08/2018 11:28:55,50.8205413818,-1.3100099564
1.53531173489512E+018,29/08/2018 11:28:55,50.8205413818,-1.3100099564
1.53531173497221E+018,29/08/2018 11:28:55,50.8205413818,-1.3100099564
1.53531173504264E+018,29/08/2018 11:28:55,50.8205413818,-1.3100099564
1.53531173511932E+018,29/08/2018 11:28:55,50.8205413818,-1.3100099564
1.53531173518952E+018,29/08/2018 11:28:55,50.8205413818,-1.3100099564
1.53531173526704E+018,29/08/2018 11:28:55,50.8205413818,-1.3100099564
1.5353117353362E+018,29/08/2018 11:28:55,50.8205413818,-1.3100099564
1.53531173541185E+018,29/08/2018 11:28:55,50.8205413818,-1.3100099564
1.53531173548099E+018,29/08/2018 11:28:55,50.8205413818,-1.3100099564
1.53531173555806E+018,29/08/2018 11:28:56,50.8205413818,-1.3100099564
1.53531173562733E+018,29/08/2018 11:28:56,50.8205413818,-1.3100099564
1.5353117357052E+018,29/08/2018 11:28:56,50.8205413818,-1.3100099564
1.53531173577554E+018,29/08/2018 11:28:56,50.8205413818,-1.3100099564
1.53531173585196E+018,29/08/2018 11:28:56,50.8205413818,-1.3100099564
1.53531173592255E+018,29/08/2018 11:28:56,50.8205337524,-1.3100233078
1.53531173600444E+018,29/08/2018 11:28:56,50.8205337524,-1.3100233078
1.53531173607001E+018,29/08/2018 11:28:56,50.8205337524,-1.3100233078
1.53531173614744E+018,29/08/2018 11:28:56,50.8205337524,-1.3100233078
1.53531173621726E+018,29/08/2018 11:28:56,50.8205337524,-1.3100233078
1.53531173629536E+018,29/08/2018 11:28:56,50.8205337524,-1.3100233078
1.53531173636508E+018,29/08/2018 11:28:56,50.8205337524,-1.3100233078
1.53531173643829E+018,29/08/2018 11:28:56,50.8205337524,-1.3100233078
1.53531173650838E+018,29/08/2018 11:28:57,50.8205337524,-1.3100233078
1.53531173658539E+018,29/08/2018 11:28:57,50.8205337524,-1.3100233078
1.53531173665524E+018,29/08/2018 11:28:57,50.8205337524,-1.3100233078
1.53531173673409E+018,29/08/2018 11:28:57,50.8205337524,-1.3100233078
1.53531173680354E+018,29/08/2018 11:28:57,50.8205337524,-1.3100233078
1.53531173688112E+018,29/08/2018 11:28:57,50.8205223083,-1.3100349903
1.53531173695552E+018,29/08/2018 11:28:57,50.8205223083,-8.000002861
1.53531173703265E+018,29/08/2018 11:28:57,50.8205223083,-8.000002861
1.53531173710186E+018,29/08/2018 11:28:57,50.8205223083,-8.000002861
1.53531173717618E+018,29/08/2018 11:28:57,50.8205223083,-8.000002861
1.53531173724537E+018,29/08/2018 11:28:57,50.8205223083,-8.000002861
1.53531173732263E+018,29/08/2018 11:28:57,50.8205223083,-8.000002861
1.53531173739461E+018,29/08/2018 11:28:57,50.8205223083,-8.000002861
1.53531173747096E+018,29/08/2018 11:28:57,50.8205223083,-8.000002861
1.5353117375399E+018,29/08/2018 11:28:58,50.8205223083,-8.000002861
1.53531173761401E+018,29/08/2018 11:28:58,50.8205223083,-8.000002861
1.5353117376877E+018,29/08/2018 11:28:58,50.8205223083,-8.000002861
1.53531173776108E+018,29/08/2018 11:28:58,50.8205223083,-8.000002861
1.53531173783613E+018,29/08/2018 11:28:58,50.8205223083,-8.000002861
1.5353117379089E+018,29/08/2018 11:28:58,50.8205223083,-8.000002861
1.53531173798318E+018,29/08/2018 11:28:58,50.8205223083,-8.000002861
1.53531173805645E+018,29/08/2018 11:28:58,50.8205223083,-8.000002861
1.53531173812562E+018,29/08/2018 11:28:58,50.8205223083,-8.000002861
1.53531173820542E+018,29/08/2018 11:28:58,50.8205223083,-8.000002861
1.53531173827367E+018,29/08/2018 11:28:58,50.8205223083,-8.000002861
1.53531173835098E+018,29/08/2018 11:28:58,50.8205223083,-8.000002861
1.53531173842011E+018,29/08/2018 11:28:58,50.8205223083,-8.000002861
1.53531173850237E+018,29/08/2018 11:28:59,50.8205223083,-8.000002861
1.53531173856912E+018,29/08/2018 11:28:59,50.8205223083,-8.000002861
1.53531173864146E+018,29/08/2018 11:28:59,50.8205223083,-8.000002861
1.53531173871565E+018,29/08/2018 11:28:59,50.820514679,-1.3100466728
1.53531173879513E+018,29/08/2018 11:28:59,50.820514679,-1.3100466728
1.53531173886269E+018,29/08/2018 11:28:59,50.820514679,-1.3100466728
1.53531173894183E+018,29/08/2018 11:28:59,50.820514679,-1.3100466728
1.53531173900999E+018,29/08/2018 11:28:59,50.820514679,-1.3100466728
1.53531173908771E+018,29/08/2018 11:28:59,50.820514679,-1.3100466728
1.5353117391584E+018,29/08/2018 11:28:59,50.820514679,-1.3100466728
1.53531173923101E+018,29/08/2018 11:28:59,50.820514679,-1.3100466728
1.53531173930202E+018,29/08/2018 11:28:59,50.820514679,-1.3100466728
1.53531173937874E+018,29/08/2018 11:28:59,50.820514679,-1.3100466728
1.53531173944866E+018,29/08/2018 11:28:59,50.820514679,-1.3100466728
1.53531173952708E+018,29/08/2018 11:29:00,50.820514679,-1.3100466728
1.53531173959685E+018,29/08/2018 11:29:00,50.820514679,-1.3100466728
1.5353117396741E+018,29/08/2018 11:29:00,50.820514679,-1.3100466728
1.53531173974376E+018,29/08/2018 11:29:00,50.8205070496,-1.3100600243
1.5353117398212E+018,29/08/2018 11:29:00,50.8205070496,-1.3100682497
1.53531173989116E+018,29/08/2018 11:29:00,50.8205070496,-1.3100682497
1.53531173996931E+018,29/08/2018 11:29:00,50.8205070496,-1.3100682497
1.53531174003901E+018,29/08/2018 11:29:00,50.8205070496,-1.3100682497
1.53531174011676E+018,29/08/2018 11:29:00,50.8205070496,-1.3100682497
1.53531174018532E+018,29/08/2018 11:29:00,50.8205070496,-1.3100682497
1.53531174026363E+018,29/08/2018 11:29:00,50.8205070496,-1.3100682497
1.53531174033347E+018,29/08/2018 11:29:00,50.8205070496,-1.3100682497
1.53531174040731E+018,29/08/2018 11:29:00,50.8205070496,-1.3100682497
1.53531174047642E+018,29/08/2018 11:29:00,50.8205070496,-1.3100682497
1.53531174055466E+018,29/08/2018 11:29:01,50.8205070496,-1.3100682497
1.53531174062316E+018,29/08/2018 11:29:01,50.8205070496,-1.3100682497
1.53531174070152E+018,29/08/2018 11:29:01,50.8205070496,-1.3100682497
1.53531174077167E+018,29/08/2018 11:29:01,50.8205070496,-1.3100682497
1.53531174084963E+018,29/08/2018 11:29:01,50.8205070496,-1.3100682497
1.53531174091875E+018,29/08/2018 11:29:01,50.8205070496,-1.3100682497
1.53531174100049E+018,29/08/2018 11:29:01,50.8205070496,-1.3100682497
1.53531174106619E+018,29/08/2018 11:29:01,50.8205070496,-1.3100682497
1.53531174114383E+018,29/08/2018 11:29:01,50.8205070496,-1.3100682497
1.53531174121511E+018,29/08/2018 11:29:01,50.8205070496,-1.3100682497
1.53531174128706E+018,29/08/2018 11:29:01,50.8205070496,-1.3100682497
1.53531174136248E+018,29/08/2018 11:29:01,50.8205070496,-1.3100682497
1.53531174143552E+018,29/08/2018 11:29:01,50.8205070496,-1.3100682497
1.53531174150508E+018,29/08/2018 11:29:02,50.8205070496,-1.3100682497
1.53531174158332E+018,29/08/2018 11:29:02,50.8205070496,-1.3100682497
1.53531174165158E+018,29/08/2018 11:29:02,50.8205070496,-1.3100682497
1.53531174172997E+018,29/08/2018 11:29:02,50.8205070496,-1.3100682497
1.53531174180357E+018,29/08/2018 11:29:02,50.8205070496,-1.3100700378
1.53531174187725E+018,29/08/2018 11:29:02,50.8205070496,-1.3100700378
1.5353117419481E+018,29/08/2018 11:29:02,50.820514679,-1.3100665808
1.53531174202462E+018,29/08/2018 11:29:02,50.820514679,-1.3100665808
1.53531174209589E+018,29/08/2018 11:29:02,50.820514679,-1.3100665808
1.53531174217248E+018,29/08/2018 11:29:02,50.820514679,-1.3100665808
1.53531174224251E+018,29/08/2018 11:29:02,50.820514679,-1.3100665808
1.53531174231903E+018,29/08/2018 11:29:02,50.820514679,-1.3100665808
1.53531174238992E+018,29/08/2018 11:29:02,50.820514679,-1.3100665808
1.53531174246341E+018,29/08/2018 11:29:02,50.820514679,-1.3100665808
1.53531174253375E+018,29/08/2018 11:29:03,50.820514679,-1.3100665808
1.53531174261105E+018,29/08/2018 11:29:03,50.820514679,-1.3100665808
1.53531174268006E+018,29/08/2018 11:29:03,50.820514679,-1.3100665808
1.53531174275807E+018,29/08/2018 11:29:03,50.820514679,-1.3100665808
1.53531174283147E+018,29/08/2018 11:29:03,50.820514679,-1.3100665808
1.53531174290524E+018,29/08/2018 11:29:03,50.820514679,-1.3100665808
1.53531174297905E+018,29/08/2018 11:29:03,50.820514679,-1.3100665808
1.53531174305743E+018,29/08/2018 11:29:03,50.820514679,-1.3100665808
1.53531174312727E+018,29/08/2018 11:29:03,50.820514679,-1.3100665808
1.5353117432021E+018,29/08/2018 11:29:03,50.820514679,-1.3100665808
1.5353117432696E+018,29/08/2018 11:29:03,50.820514679,-1.3100665808
1.53531174334865E+018,29/08/2018 11:29:03,50.820514679,-1.3100665808
1.53531174341667E+018,29/08/2018 11:29:03,50.820514679,-1.3100665808
1.53531174349676E+018,29/08/2018 11:29:03,50.820514679,-1.3100665808
1.53531174356581E+018,29/08/2018 11:29:04,50.820514679,-1.3100665808
1.53531174363786E+018,29/08/2018 11:29:04,50.820514679,-1.3100665808
1.53531174371231E+018,29/08/2018 11:29:04,50.820514679,-1.3100665808
1.53531174378518E+018,29/08/2018 11:29:04,50.820514679,-1.3100665808
1.53531174385998E+018,29/08/2018 11:29:04,50.820514679,-1.3100616932
1.53531174393861E+018,29/08/2018 11:29:04,50.820514679,-1.3100616932
1.53531174401031E+018,29/08/2018 11:29:04,50.820514679,-1.3100616932
1.53531174408061E+018,29/08/2018 11:29:04,50.820514679,-1.3100616932
1.53531174415572E+018,29/08/2018 11:29:04,50.820514679,-1.3100616932
1.53531174422781E+018,29/08/2018 11:29:04,50.820514679,-1.3100616932
1.53531174429889E+018,29/08/2018 11:29:04,50.820514679,-1.3100616932
1.53531174437588E+018,29/08/2018 11:29:04,50.820514679,-1.3100616932
1.535311744446E+018,29/08/2018 11:29:04,50.820514679,-1.3100616932
1.53531174452291E+018,29/08/2018 11:29:05,50.820514679,-1.3100616932
1.53531174459402E+018,29/08/2018 11:29:05,50.820514679,-1.3100616932
1.53531174466711E+018,29/08/2018 11:29:05,50.820514679,-1.3100616932
1.53531174473613E+018,29/08/2018 11:29:05,50.820514679,-1.3100616932
1.53531174481562E+018,29/08/2018 11:29:05,50.820514679,-1.3100616932
1.53531174488807E+018,29/08/2018 11:29:05,50.820514679,-1.3100616932
1.53531174496207E+018,29/08/2018 11:29:05,50.820514679,-1.3100616932
1.53531174503486E+018,29/08/2018 11:29:05,50.820514679,-1.3100616932
1.53531174510876E+018,29/08/2018 11:29:05,50.820514679,-1.3100616932
1.53531174517919E+018,29/08/2018 11:29:05,50.820514679,-1.3100616932
1.5353117452563E+018,29/08/2018 11:29:05,50.820514679,-1.3100616932
1.53531174532635E+018,29/08/2018 11:29:05,50.820514679,-1.3100616932
1.53531174540524E+018,29/08/2018 11:29:05,50.820514679,-1.3100616932
1.53531174547348E+018,29/08/2018 11:29:05,50.820514679,-1.3100616932
1.5353117455518E+018,29/08/2018 11:29:06,50.820514679,-1.3100616932
1.53531174562164E+018,29/08/2018 11:29:06,50.820514679,-1.3100616932
1.53531174569548E+018,29/08/2018 11:29:06,50.820514679,-1.3100616932
1.53531174576916E+018,29/08/2018 11:29:06,50.820514679,-1.3100616932
1.53531174584186E+018,29/08/2018 11:29:06,50.820514679,-1.3100616932
1.53531174591558E+018,29/08/2018 11:29:06,50.820514679,-1.3100616932
1.53531174598829E+018,29/08/2018 11:29:06,50.820514679,-1.3100616932
1.53531174605918E+018,29/08/2018 11:29:06,50.820514679,-1.3100616932
1.53531174613615E+018,29/08/2018 11:29:06,50.820514679,-1.3100616932
1.53531174620735E+018,29/08/2018 11:29:06,50.820514679,-1.3100616932
1.53531174628456E+018,29/08/2018 11:29:06,50.820514679,-1.3100616932
1.53531174635384E+018,29/08/2018 11:29:06,50.820514679,-1.3100616932
1.53531174643163E+018,29/08/2018 11:29:06,50.820514679,-1.3100616932
1.53531174650377E+018,29/08/2018 11:29:07,50.820514679,-1.3100616932
1.53531174657395E+018,29/08/2018 11:29:07,50.820514679,-1.3100616932
1.53531174664489E+018,29/08/2018 11:29:07,50.820514679,-1.3100616932
1.53531174672203E+018,29/08/2018 11:29:07,50.820514679,-1.3100616932
1.5353117467965E+018,29/08/2018 11:29:07,50.8205223083,-1.3100583553
1.53531174687453E+018,29/08/2018 11:29:07,50.8205337524,-1.3100550175
1.53531174694382E+018,29/08/2018 11:29:07,50.8205337524,-1.3100550175
1.53531174701701E+018,29/08/2018 11:29:07,50.8205337524,-1.3100550175
1.53531174709333E+018,29/08/2018 11:29:07,50.8205337524,-1.3100550175
1.53531174716949E+018,29/08/2018 11:29:07,50.8205337524,-1.3100550175
1.53531174723872E+018,29/08/2018 11:29:07,50.8205337524,-1.3100550175
1.53531174731173E+018,29/08/2018 11:29:07,50.8205337524,-1.3100550175
1.53531174738116E+018,29/08/2018 11:29:07,50.8205337524,-1.3100550175
1.53531174745964E+018,29/08/2018 11:29:07,50.8205337524,-1.3100550175
1.53531174753069E+018,29/08/2018 11:29:08,50.8205337524,-1.3100550175
1.53531174760941E+018,29/08/2018 11:29:08,50.8205337524,-1.3100550175
1.53531174767668E+018,29/08/2018 11:29:08,50.8205337524,-1.3100550175
1.53531174775504E+018,29/08/2018 11:29:08,50.8205337524,-1.3100550175
1.5353117478249E+018,29/08/2018 11:29:08,50.8205337524,-1.3100550175
1.53531174790437E+018,29/08/2018 11:29:08,50.8205337524,-1.3100550175
1.5353117479729E+018,29/08/2018 11:29:08,50.8205337524,-1.3100550175
1.53531174804465E+018,29/08/2018 11:29:08,50.8205337524,-1.3100550175
1.53531174811917E+018,29/08/2018 11:29:08,50.8205337524,-1.3100550175
1.53531174819329E+018,29/08/2018 11:29:08,50.8205337524,-1.3100550175
1.53531174826328E+018,29/08/2018 11:29:08,50.8205337524,-1.3100550175
1.53531174834016E+018,29/08/2018 11:29:08,50.8205337524,-1.3100550175
1.53531174841114E+018,29/08/2018 11:29:08,50.8205337524,-1.3100550175
1.53531174848842E+018,29/08/2018 11:29:08,50.8205337524,-1.3100550175
1.53531174855746E+018,29/08/2018 11:29:09,50.8205337524,-1.3100550175
1.53531174863146E+018,29/08/2018 11:29:09,50.8205337524,-1.3100550175
1.53531174870192E+018,29/08/2018 11:29:09,50.8205337524,-1.3100550175
1.53531174877869E+018,29/08/2018 11:29:09,50.8205337524,-1.3100550175
1.53531174884833E+018,29/08/2018 11:29:09,50.8205337524,-1.3100550175
1.53531174892563E+018,29/08/2018 11:29:09,50.8205337524,-1.3100316525
1.53531174900532E+018,29/08/2018 11:29:09,50.8205337524,-1.3100316525
1.53531174907475E+018,29/08/2018 11:29:09,50.8205337524,-1.3100316525
1.5353117491477E+018,29/08/2018 11:29:09,50.8205337524,-1.3100316525
1.53531174922097E+018,29/08/2018 11:29:09,50.8205337524,-1.3100316525
1.53531174929037E+018,29/08/2018 11:29:09,50.8205337524,-1.3100316525
1.53531174936894E+018,29/08/2018 11:29:09,50.8205337524,-1.3100316525
1.53531174943733E+018,29/08/2018 11:29:09,50.8205337524,-1.3100316525
1.5353117495155E+018,29/08/2018 11:29:10,50.8205337524,-1.3100316525
1.53531174958609E+018,29/08/2018 11:29:10,50.8205337524,-1.3100316525
1.53531174965837E+018,29/08/2018 11:29:10,50.8205337524,-1.3100316525
1.53531174973391E+018,29/08/2018 11:29:10,50.8205337524,-1.3100316525
1.53531174980769E+018,29/08/2018 11:29:10,50.8205337524,-1.3100316525
1.53531174987998E+018,29/08/2018 11:29:10,50.8205337524,-1.3100316525
1.53531174995405E+018,29/08/2018 11:29:10,50.8205337524,-1.3100316525
1.53531175002797E+018,29/08/2018 11:29:10,50.8205337524,-1.3100316525
1.53531175010193E+018,29/08/2018 11:29:10,50.8205337524,-1.3100316525
1.53531175017122E+018,29/08/2018 11:29:10,50.8205337524,-1.3100316525
1.53531175024932E+018,29/08/2018 11:29:10,50.8205337524,-1.3100316525
1.53531175031801E+018,29/08/2018 11:29:10,50.8205337524,-1.3100316525
1.53531175039626E+018,29/08/2018 11:29:10,50.8205337524,-1.3100316525
1.53531175046598E+018,29/08/2018 11:29:10,50.8205337524,-1.3100316525
1.5353117505404E+018,29/08/2018 11:29:11,50.8205337524,-1.3100316525
1.53531175061074E+018,29/08/2018 11:29:11,50.8205337524,-1.3100316525
1.53531175068675E+018,29/08/2018 11:29:11,50.8205337524,-1.3100316525
1.53531175075677E+018,29/08/2018 11:29:11,50.8205337524,-1.3100316525
1.5353117508354E+018,29/08/2018 11:29:11,50.8205337524,-1.3100316525
1.53531175090821E+018,29/08/2018 11:29:11,50.8205223083,-1.3100349903
1.53531175098303E+018,29/08/2018 11:29:11,50.8205223083,-1.3100349903
1.53531175105608E+018,29/08/2018 11:29:11,50.8205223083,-1.3100349903
1.53531175112969E+018,29/08/2018 11:29:11,50.8205223083,-1.3100349903
1.5353117512039E+018,29/08/2018 11:29:11,50.8205223083,-1.3100349903
1.53531175127768E+018,29/08/2018 11:29:11,50.8205223083,-1.3100349903
1.53531175134665E+018,29/08/2018 11:29:11,50.8205223083,-1.3100349903
1.53531175142498E+018,29/08/2018 11:29:11,50.8205223083,-1.3100349903
1.53531175149543E+018,29/08/2018 11:29:11,50.8205223083,-1.3100349903
1.53531175157208E+018,29/08/2018 11:29:12,50.8205223083,-1.3100349903
1.53531175164158E+018,29/08/2018 11:29:12,50.8205223083,-1.3100349903
1.53531175171574E+018,29/08/2018 11:29:12,50.8205223083,-1.3100349903
1.53531175178944E+018,29/08/2018 11:29:12,50.8205223083,-1.3100349903
1.53531175186731E+018,29/08/2018 11:29:12,50.8205223083,-1.3100415468
1.53531175193614E+018,29/08/2018 11:29:12,50.8205223083,-1.3100415468
1.53531175201491E+018,29/08/2018 11:29:12,50.8205223083,-1.3100415468
1.53531175208409E+018,29/08/2018 11:29:12,50.8205223083,-1.3100415468
1.53531175215751E+018,29/08/2018 11:29:12,50.8205223083,-1.3100415468
1.53531175222614E+018,29/08/2018 11:29:12,50.8205223083,-1.3100415468
1.5353117523054E+018,29/08/2018 11:29:12,50.8205223083,-1.3100415468
1.53531175237413E+018,29/08/2018 11:29:12,50.8205223083,-1.3100415468
1.53531175245282E+018,29/08/2018 11:29:12,50.8205223083,-1.3100415468
1.53531175252351E+018,29/08/2018 11:29:13,50.8205223083,-1.3100415468
1.53531175260233E+018,29/08/2018 11:29:13,50.8205223083,-1.3100415468
1.53531175267024E+018,29/08/2018 11:29:13,50.8205223083,-1.3100415468
1.53531175274423E+018,29/08/2018 11:29:13,50.8205223083,-1.3100415468
1.53531175281453E+018,29/08/2018 11:29:13,50.8205223083,-1.3100415468
1.53531175289092E+018,29/08/2018 11:29:13,50.8205223083,-1.3100415468
1.5353117529645E+018,29/08/2018 11:29:13,50.8205223083,-1.3100415468
1.53531175304354E+018,29/08/2018 11:29:13,50.820514679,-1.3100500107
1.53531175311171E+018,29/08/2018 11:29:13,50.820514679,-1.3100500107
1.53531175318577E+018,29/08/2018 11:29:13,50.820514679,-1.3100500107
1.53531175325907E+018,29/08/2018 11:29:13,50.820514679,-1.3100500107
1.53531175333348E+018,29/08/2018 11:29:13,50.820514679,-1.3100500107
1.53531175340283E+018,29/08/2018 11:29:13,50.820514679,-1.3100500107
1.53531175348046E+018,29/08/2018 11:29:13,50.820514679,-1.3100500107
1.53531175355107E+018,29/08/2018 11:29:14,50.820514679,-1.3100500107
1.53531175362841E+018,29/08/2018 11:29:14,50.820514679,-1.3100500107
1.5353117537003E+018,29/08/2018 11:29:14,50.820514679,-1.3100500107
1.53531175377553E+018,29/08/2018 11:29:14,50.820514679,-1.3100500107
1.53531175384578E+018,29/08/2018 11:29:14,50.820514679,-1.3100500107
1.53531175392304E+018,29/08/2018 11:29:14,50.820514679,-1.3100500107
1.53531175399238E+018,29/08/2018 11:29:14,50.820514679,-1.3100500107
1.53531175406961E+018,29/08/2018 11:29:14,50.820514679,-1.3100500107
1.53531175414027E+018,29/08/2018 11:29:14,50.820514679,-1.3100500107
1.535311754213E+018,29/08/2018 11:29:14,50.820514679,-1.3100500107
1.53531175428387E+018,29/08/2018 11:29:14,50.820514679,-1.3100500107
1.5353117543608E+018,29/08/2018 11:29:14,50.820514679,-1.3100500107
1.53531175443056E+018,29/08/2018 11:29:14,50.820514679,-1.3100500107
1.53531175450919E+018,29/08/2018 11:29:15,50.820514679,-1.3100500107
1.5353117545781E+018,29/08/2018 11:29:15,50.820514679,-1.3100500107
1.5353117546523E+018,29/08/2018 11:29:15,50.820514679,-1.3100500107
1.53531175472192E+018,29/08/2018 11:29:15,50.820514679,-1.3100500107
1.53531175480278E+018,29/08/2018 11:29:15,50.820514679,-1.3100500107
1.53531175486862E+018,29/08/2018 11:29:15,50.820514679,-1.3100500107
1.53531175494684E+018,29/08/2018 11:29:15,50.820514679,-1.3100500107
1.5353117550162E+018,29/08/2018 11:29:15,50.820514679,-1.3100500107
1.53531175509487E+018,29/08/2018 11:29:15,50.820514679,-1.3100500107
1.53531175516468E+018,29/08/2018 11:29:15,50.820514679,-1.3100500107
1.53531175524096E+018,29/08/2018 11:29:15,50.820514679,-1.3100500107
1.53531175531179E+018,29/08/2018 11:29:15,50.820514679,-1.3100500107
1.5353117553898E+018,29/08/2018 11:29:15,50.820514679,-1.3100500107
1.53531175545873E+018,29/08/2018 11:29:15,50.820514679,-1.3100500107
1.53531175553305E+018,29/08/2018 11:29:16,50.820514679,-1.3100500107
1.5353117556029E+018,29/08/2018 11:29:16,50.820514679,-1.3100500107
1.53531175568117E+018,29/08/2018 11:29:16,50.820514679,-1.3100500107
1.53531175574913E+018,29/08/2018 11:29:16,50.820514679,-1.3100500107
1.53531175582695E+018,29/08/2018 11:29:16,50.8204917908,-1.3100799322
1.5353117559042E+018,29/08/2018 11:29:16,50.8204917908,-1.3100799322
1.53531175597549E+018,29/08/2018 11:29:16,50.8204917908,-1.3100799322
1.53531175604434E+018,29/08/2018 11:29:16,50.8204917908,-1.3100799322
1.5353117561228E+018,29/08/2018 11:29:16,50.8204917908,-1.3100799322
1.53531175619258E+018,29/08/2018 11:29:16,50.8204917908,-1.3100799322
1.53531175627114E+018,29/08/2018 11:29:16,50.8204917908,-1.3100799322
1.535311756339E+018,29/08/2018 11:29:16,50.8204917908,-1.3100799322
1.53531175641273E+018,29/08/2018 11:29:16,50.8204917908,-1.3100799322
1.53531175648586E+018,29/08/2018 11:29:16,50.8204917908,-1.3100799322
1.53531175656009E+018,29/08/2018 11:29:17,50.8204917908,-1.3100799322
1.53531175663076E+018,29/08/2018 11:29:17,50.8204917908,-1.3100799322
1.53531175670839E+018,29/08/2018 11:29:17,50.8204917908,-1.3100799322
1.5353117567769E+018,29/08/2018 11:29:17,50.8204917908,-1.3100799322
1.53531175685469E+018,29/08/2018 11:29:17,50.8204917908,-1.3100799322
1.53531175692542E+018,29/08/2018 11:29:17,50.8204917908,-1.3100799322
1.5353117570023E+018,29/08/2018 11:29:17,50.8204917908,-1.3100799322
1.53531175707229E+018,29/08/2018 11:29:17,50.8204917908,-1.3100799322
1.53531175715043E+018,29/08/2018 11:29:17,50.8204917908,-1.3100799322
1.53531175721999E+018,29/08/2018 11:29:17,50.8204917908,-1.3100799322
1.53531175729445E+018,29/08/2018 11:29:17,50.8204917908,-1.3100799322
1.53531175736668E+018,29/08/2018 11:29:17,50.8204917908,-1.3100799322
1.53531175744054E+018,29/08/2018 11:29:17,50.8204917908,-1.3100799322
1.5353117575152E+018,29/08/2018 11:29:18,50.8204917908,-1.3100799322
1.53531175758802E+018,29/08/2018 11:29:18,50.8204917908,-1.3100799322
1.53531175765884E+018,29/08/2018 11:29:18,50.8204917908,-1.3100799322
1.53531175773569E+018,29/08/2018 11:29:18,50.8204917908,-1.3100799322
1.53531175781E+018,29/08/2018 11:29:18,50.8204841614,-1.310090065
1.53531175788379E+018,29/08/2018 11:29:18,50.8204841614,-1.310090065
1.53531175795706E+018,29/08/2018 11:29:18,50.8204841614,-1.310090065
1.53531175803099E+018,29/08/2018 11:29:18,50.8204841614,-1.310090065
1.53531175810118E+018,29/08/2018 11:29:18,50.8204841614,-1.310090065
1.535311758179E+018,29/08/2018 11:29:18,50.8204841614,-1.310090065
1.53531175824886E+018,29/08/2018 11:29:18,50.8204841614,-1.310090065
1.53531175832566E+018,29/08/2018 11:29:18,50.8204841614,-1.310090065
1.53531175839524E+018,29/08/2018 11:29:18,50.8204841614,-1.310090065
1.53531175847247E+018,29/08/2018 11:29:18,50.8204841614,-1.310090065
1.53531175854321E+018,29/08/2018 11:29:19,50.8204841614,-1.310090065
1.53531175861694E+018,29/08/2018 11:29:19,50.8204841614,-1.310090065
1.53531175868975E+018,29/08/2018 11:29:19,50.8204841614,-1.310090065
1.53531175876502E+018,29/08/2018 11:29:19,50.8204841614,-1.310090065
1.53531175883822E+018,29/08/2018 11:29:19,50.8204841614,-1.310090065
1.53531175891245E+018,29/08/2018 11:29:19,50.8204841614,-1.310090065
1.53531175898557E+018,29/08/2018 11:29:19,50.8204841614,-1.310090065
1.53531175905912E+018,29/08/2018 11:29:19,50.8204841614,-1.310090065
1.53531175912811E+018,29/08/2018 11:29:19,50.8204841614,-1.310090065
1.53531175920699E+018,29/08/2018 11:29:19,50.8204841614,-1.310090065
1.53531175927653E+018,29/08/2018 11:29:19,50.8204841614,-1.310090065
1.53531175935335E+018,29/08/2018 11:29:19,50.8204841614,-1.310090065
1.53531175942446E+018,29/08/2018 11:29:19,50.8204841614,-1.310090065
1.53531175950324E+018,29/08/2018 11:29:20,50.8204841614,-1.310090065
1.5353117595706E+018,29/08/2018 11:29:20,50.8204841614,-1.310090065
1.535311759645E+018,29/08/2018 11:29:20,50.8204841614,-1.310090065
1.53531175971871E+018,29/08/2018 11:29:20,50.8204841614,-1.310090065
1.53531175979629E+018,29/08/2018 11:29:20,50.8204689026,-1.3101116419
1.53531175986525E+018,29/08/2018 11:29:20,50.8204689026,-1.3101249933
1.53531175994394E+018,29/08/2018 11:29:20,50.8204689026,-1.3101249933
1.53531176001427E+018,29/08/2018 11:29:20,50.8204689026,-1.3101249933
1.53531176009019E+018,29/08/2018 11:29:20,50.8204689026,-1.3101249933
1.53531176016069E+018,29/08/2018 11:29:20,50.8204689026,-1.3101249933
1.53531176023427E+018,29/08/2018 11:29:20,50.8204689026,-1.3101249933
1.53531176030759E+018,29/08/2018 11:29:20,50.8204689026,-1.3101249933
1.53531176038182E+018,29/08/2018 11:29:20,50.8204689026,-1.3101249933
1.53531176045128E+018,29/08/2018 11:29:20,50.8204689026,-1.3101249933
1.53531176052966E+018,29/08/2018 11:29:21,50.8204689026,-1.3101249933
1.53531176060118E+018,29/08/2018 11:29:21,50.8204689026,-1.3101249933
1.53531176067688E+018,29/08/2018 11:29:21,50.8204689026,-1.3101249933
1.53531176074699E+018,29/08/2018 11:29:21,50.8204689026,-1.3101249933
1.53531176082372E+018,29/08/2018 11:29:21,50.8204574585,-1.3101383448
1.5353117608957E+018,29/08/2018 11:29:21,50.8204574585,-1.3101383448
1.53531176097086E+018,29/08/2018 11:29:21,50.8204574585,-1.3101383448
1.53531176104123E+018,29/08/2018 11:29:21,50.8204574585,-1.3101383448
1.5353117611194E+018,29/08/2018 11:29:21,50.8204574585,-1.3101383448
1.5353117611881E+018,29/08/2018 11:29:21,50.8204574585,-1.3101383448
1.53531176126193E+018,29/08/2018 11:29:21,50.8204574585,-1.3101383448
1.53531176133116E+018,29/08/2018 11:29:21,50.8204574585,-1.3101383448
1.53531176140996E+018,29/08/2018 11:29:21,50.8204574585,-1.3101383448
1.53531176148339E+018,29/08/2018 11:29:21,50.8204574585,-1.3101383448
1.5353117615574E+018,29/08/2018 11:29:22,50.8204574585,-1.3101383448
1.53531176162661E+018,29/08/2018 11:29:22,50.8204574585,-1.3101383448
1.53531176170519E+018,29/08/2018 11:29:22,50.8204574585,-1.3101383448
1.53531176177513E+018,29/08/2018 11:29:22,50.8204574585,-1.3101383448
1.53531176185168E+018,29/08/2018 11:29:22,50.8204498291,-1.3101500273
1.53531176192638E+018,29/08/2018 11:29:22,50.8204498291,-1.3101500273
1.53531176200675E+018,29/08/2018 11:29:22,50.8204498291,-1.3101500273
1.53531176207042E+018,29/08/2018 11:29:22,50.8204498291,-1.3101500273
1.53531176214651E+018,29/08/2018 11:29:22,50.8204498291,-1.3101500273
1.5353117622168E+018,29/08/2018 11:29:22,50.8204498291,-1.3101500273
1.53531176229518E+018,29/08/2018 11:29:22,50.8204498291,-1.3101500273
1.53531176236396E+018,29/08/2018 11:29:22,50.8204498291,-1.3101500273
1.53531176243754E+018,29/08/2018 11:29:22,50.8204498291,-1.3101500273
1.5353117625116E+018,29/08/2018 11:29:23,50.8204498291,-1.3101500273
1.53531176258559E+018,29/08/2018 11:29:23,50.8204498291,-1.3101500273
1.53531176265489E+018,29/08/2018 11:29:23,50.8204498291,-1.3101500273
1.53531176273265E+018,29/08/2018 11:29:23,50.8204498291,-1.3101500273
1.53531176280298E+018,29/08/2018 11:29:23,50.8204498291,-1.3101500273
1.53531176288125E+018,29/08/2018 11:29:23,50.8204498291,-1.3101500273
1.53531176294916E+018,29/08/2018 11:29:23,50.8204498291,-1.3101500273
1.53531176302728E+018,29/08/2018 11:29:23,50.8204498291,-1.3101500273
1.53531176309762E+018,29/08/2018 11:29:23,50.8204498291,-1.3101500273
1.53531176317411E+018,29/08/2018 11:29:23,50.8204498291,-1.3101500273
1.53531176324543E+018,29/08/2018 11:29:23,50.8204498291,-1.3101500273
1.5353117633194E+018,29/08/2018 11:29:23,50.8204498291,-1.3101500273
1.53531176338861E+018,29/08/2018 11:29:23,50.8204498291,-1.3101500273
1.53531176346623E+018,29/08/2018 11:29:23,50.8204498291,-1.3101500273
1.53531176353642E+018,29/08/2018 11:29:24,50.8204498291,-1.3101500273
1.53531176361356E+018,29/08/2018 11:29:24,50.8204498291,-1.3101500273
1.53531176368328E+018,29/08/2018 11:29:24,50.8204498291,-1.3101500273
1.5353117637607E+018,29/08/2018 11:29:24,50.8204421997,-1.3101650477
1.53531176383347E+018,29/08/2018 11:29:24,50.8204345703,-1.3101732731
1.53531176391179E+018,29/08/2018 11:29:24,50.8204345703,-1.3101732731
1.53531176398226E+018,29/08/2018 11:29:24,50.8204345703,-1.3101732731
1.53531176405976E+018,29/08/2018 11:29:24,50.8204345703,-1.3101732731
1.53531176412871E+018,29/08/2018 11:29:24,50.8204345703,-1.3101732731
1.53531176420435E+018,29/08/2018 11:29:24,50.8204345703,-1.3101732731
1.53531176427301E+018,29/08/2018 11:29:24,50.8204345703,-1.3101732731
1.53531176434976E+018,29/08/2018 11:29:24,50.8204345703,-1.3101732731
1.53531176441985E+018,29/08/2018 11:29:24,50.8204345703,-1.3101732731
1.53531176450482E+018,29/08/2018 11:29:25,50.8204345703,-1.3101732731
1.53531176456752E+018,29/08/2018 11:29:25,50.8204345703,-1.3101732731
1.53531176464134E+018,29/08/2018 11:29:25,50.8204345703,-1.3101732731
1.53531176471483E+018,29/08/2018 11:29:25,50.8204345703,-1.3101732731
1.5353117647888E+018,29/08/2018 11:29:25,50.8204345703,-1.3101732731
1.535311764863E+018,29/08/2018 11:29:25,50.8204269409,-1.3101816177
1.53531176494077E+018,29/08/2018 11:29:25,50.8204269409,-1.3101816177
1.53531176500969E+018,29/08/2018 11:29:25,50.8204269409,-1.3101816177
1.53531176508754E+018,29/08/2018 11:29:25,50.8204269409,-1.3101816177
1.53531176515698E+018,29/08/2018 11:29:25,50.8204269409,-1.3101816177
1.53531176523083E+018,29/08/2018 11:29:25,50.8204269409,-1.3101816177
1.53531176530151E+018,29/08/2018 11:29:25,50.8204269409,-1.3101816177
1.5353117653784E+018,29/08/2018 11:29:25,50.8204269409,-1.3101816177
1.53531176544928E+018,29/08/2018 11:29:25,50.8204269409,-1.3101816177
1.53531176552531E+018,29/08/2018 11:29:26,50.8204269409,-1.3101816177
1.53531176559609E+018,29/08/2018 11:29:26,50.8204269409,-1.3101816177
1.53531176567236E+018,29/08/2018 11:29:26,50.8204269409,-1.3101816177
1.53531176574299E+018,29/08/2018 11:29:26,50.8204269409,-1.3101816177
1.53531176582096E+018,29/08/2018 11:29:26,50.8204269409,-1.3101816177
1.53531176588974E+018,29/08/2018 11:29:26,50.8204193115,-1.3101934195
1.53531176596818E+018,29/08/2018 11:29:26,50.8204193115,-1.3101934195
1.5353117660371E+018,29/08/2018 11:29:26,50.8204193115,-1.3101934195
1.53531176611558E+018,29/08/2018 11:29:26,50.8204193115,-1.3101934195
1.53531176618556E+018,29/08/2018 11:29:26,50.8204193115,-1.3101934195
1.53531176626367E+018,29/08/2018 11:29:26,50.8204193115,-1.3101934195
1.53531176633259E+018,29/08/2018 11:29:26,50.8204193115,-1.3101934195
1.53531176640733E+018,29/08/2018 11:29:26,50.8204193115,-1.3101934195
1.53531176647604E+018,29/08/2018 11:29:26,50.8204193115,-1.3101934195
1.5353117665548E+018,29/08/2018 11:29:27,50.8204193115,-1.3101934195
1.53531176662374E+018,29/08/2018 11:29:27,50.8204193115,-1.3101934195
1.53531176670331E+018,29/08/2018 11:29:27,50.8204193115,-1.3101934195
1.5353117667719E+018,29/08/2018 11:29:27,50.8204193115,-1.3101934195
1.53531176684817E+018,29/08/2018 11:29:27,50.8204193115,-1.3101934195
1.53531176691883E+018,29/08/2018 11:29:27,50.8204193115,-1.3101934195
1.53531176699705E+018,29/08/2018 11:29:27,50.8204193115,-1.3101934195
1.53531176706579E+018,29/08/2018 11:29:27,50.8204193115,-1.3101934195
1.53531176713963E+018,29/08/2018 11:29:27,50.8204193115,-1.3101934195
1.53531176721247E+018,29/08/2018 11:29:27,50.8204193115,-1.3101934195
1.53531176728669E+018,29/08/2018 11:29:27,50.8204193115,-1.3101934195
1.53531176735604E+018,29/08/2018 11:29:27,50.8204193115,-1.3101934195
1.53531176743583E+018,29/08/2018 11:29:27,50.8204193115,-1.3101934195
1.5353117675041E+018,29/08/2018 11:29:28,50.8204193115,-1.3101934195
1.53531176758163E+018,29/08/2018 11:29:28,50.8204193115,-1.3101934195
1.53531176765216E+018,29/08/2018 11:29:28,50.8204193115,-1.3101934195
1.53531176772929E+018,29/08/2018 11:29:28,50.8204193115,-1.3101934195
1.5353117678043E+018,29/08/2018 11:29:28,50.8204116821,-1.3102116585
1.53531176787794E+018,29/08/2018 11:29:28,50.8204116821,-1.3102116585
1.53531176794659E+018,29/08/2018 11:29:28,50.8204116821,-1.3102116585
1.53531176802486E+018,29/08/2018 11:29:28,50.8204116821,-1.3102116585
1.53531176809524E+018,29/08/2018 11:29:28,50.8204116821,-1.3102116585
1.53531176817174E+018,29/08/2018 11:29:28,50.8204116821,-1.3102116585
1.53531176824112E+018,29/08/2018 11:29:28,50.8204116821,-1.3102116585
1.53531176831506E+018,29/08/2018 11:29:28,50.8204116821,-1.3102116585
1.53531176838817E+018,29/08/2018 11:29:28,50.8204116821,-1.3102116585
1.53531176846264E+018,29/08/2018 11:29:28,50.8204116821,-1.3102116585
1.53531176853176E+018,29/08/2018 11:29:29,50.8204116821,-1.3102116585
1.53531176861013E+018,29/08/2018 11:29:29,50.8204116821,-1.3102116585
1.53531176867879E+018,29/08/2018 11:29:29,50.8204116821,-1.3102116585
1.53531176875716E+018,29/08/2018 11:29:29,50.8204116821,-1.3102116585
1.53531176882731E+018,29/08/2018 11:29:29,50.8204116821,-1.3102116585
1.53531176890645E+018,29/08/2018 11:29:29,50.820400238,-1.3102216721
1.53531176897528E+018,29/08/2018 11:29:29,50.820400238,-1.3102216721
1.53531176905164E+018,29/08/2018 11:29:29,50.820400238,-1.3102216721
1.5353117691239E+018,29/08/2018 11:29:29,50.820400238,-1.3102216721
1.53531176920253E+018,29/08/2018 11:29:29,50.820400238,-1.3102216721
1.53531176927001E+018,29/08/2018 11:29:29,50.820400238,-1.3102216721
1.53531176934728E+018,29/08/2018 11:29:29,50.820400238,-1.3102216721
1.53531176941634E+018,29/08/2018 11:29:29,50.820400238,-1.3102216721
1.53531176949072E+018,29/08/2018 11:29:29,50.820400238,-1.3102216721
1.53531176956442E+018,29/08/2018 11:29:30,50.820400238,-1.3102216721
1.53531176963801E+018,29/08/2018 11:29:30,50.820400238,-1.3102216721
1.53531176971273E+018,29/08/2018 11:29:30,50.820400238,-1.3102216721
1.53531176978516E+018,29/08/2018 11:29:30,50.820400238,-1.3102216721
1.53531176985942E+018,29/08/2018 11:29:30,50.820400238,-1.3102216721
1.53531176993748E+018,29/08/2018 11:29:30,50.8203926086,-1.3102316856
1.53531177000699E+018,29/08/2018 11:29:30,50.8203926086,-1.3102316856
1.53531177008047E+018,29/08/2018 11:29:30,50.8203926086,-1.3102316856
1.5353117701541E+018,29/08/2018 11:29:30,50.8203926086,-1.3102316856
1.53531177022727E+018,29/08/2018 11:29:30,50.8203926086,-1.3102316856
1.53531177029936E+018,29/08/2018 11:29:30,50.8203926086,-1.3102316856
1.53531177037497E+018,29/08/2018 11:29:30,50.8203926086,-1.3102316856
1.53531177044445E+018,29/08/2018 11:29:30,50.8203926086,-1.3102316856
1.53531177052201E+018,29/08/2018 11:29:31,50.8203926086,-1.3102316856
1.53531177059261E+018,29/08/2018 11:29:31,50.8203926086,-1.3102316856
1.5353117706657E+018,29/08/2018 11:29:31,50.8203926086,-1.3102316856
1.53531177073574E+018,29/08/2018 11:29:31,50.8203926086,-1.3102316856
1.53531177081346E+018,29/08/2018 11:29:31,50.8203926086,-1.3102316856
1.53531177088649E+018,29/08/2018 11:29:31,50.8203773499,-1.31024158
1.53531177096488E+018,29/08/2018 11:29:31,50.8203773499,-1.31024158
1.53531177103544E+018,29/08/2018 11:29:31,50.8203773499,-1.31024158
1.53531177110768E+018,29/08/2018 11:29:31,50.8203773499,-1.31024158
1.53531177118253E+018,29/08/2018 11:29:31,50.8203773499,-1.31024158
1.53531177125581E+018,29/08/2018 11:29:31,50.8203773499,-1.31024158
1.5353117713252E+018,29/08/2018 11:29:31,50.8203773499,-1.31024158
1.53531177140341E+018,29/08/2018 11:29:31,50.8203773499,-1.31024158
1.53531177147203E+018,29/08/2018 11:29:31,50.8203773499,-1.31024158
1.53531177155019E+018,29/08/2018 11:29:32,50.8203773499,-1.31024158
1.53531177162051E+018,29/08/2018 11:29:32,50.8203773499,-1.31024158
1.53531177170086E+018,29/08/2018 11:29:32,50.8203773499,-1.31024158
1.53531177176783E+018,29/08/2018 11:29:32,50.8203773499,-1.31024158
1.53531177184565E+018,29/08/2018 11:29:32,50.8203773499,-1.31024158
1.53531177191585E+018,29/08/2018 11:29:32,50.8203773499,-1.31024158
1.53531177199374E+018,29/08/2018 11:29:32,50.8203773499,-1.31024158
1.53531177206329E+018,29/08/2018 11:29:32,50.8203773499,-1.31024158
1.5353117721365E+018,29/08/2018 11:29:32,50.8203773499,-1.31024158
1.53531177220954E+018,29/08/2018 11:29:32,50.8203773499,-1.31024158
1.53531177228385E+018,29/08/2018 11:29:32,50.8203773499,-1.31024158
1.53531177235403E+018,29/08/2018 11:29:32,50.8203773499,-1.31024158
1.53531177243182E+018,29/08/2018 11:29:32,50.8203773499,-1.31024158
1.53531177250099E+018,29/08/2018 11:29:33,50.8203773499,-1.31024158
1.53531177257825E+018,29/08/2018 11:29:33,50.8203773499,-1.31024158
1.53531177264755E+018,29/08/2018 11:29:33,50.8203773499,-1.31024158
1.53531177272584E+018,29/08/2018 11:29:33,50.8203773499,-1.31024158
1.53531177279664E+018,29/08/2018 11:29:33,50.8203773499,-1.3102532625
1.53531177287381E+018,29/08/2018 11:29:33,50.8203697205,-1.310264945
1.53531177294336E+018,29/08/2018 11:29:33,50.8203697205,-1.310264945
1.53531177302157E+018,29/08/2018 11:29:33,50.8203697205,-1.310264945
1.53531177309102E+018,29/08/2018 11:29:33,50.8203697205,-1.310264945
1.5353117731687E+018,29/08/2018 11:29:33,50.8203697205,-1.310264945
1.53531177323792E+018,29/08/2018 11:29:33,50.8203697205,-1.310264945
1.53531177331582E+018,29/08/2018 11:29:33,50.8203697205,-1.310264945
1.5353117733863E+018,29/08/2018 11:29:33,50.8203697205,-1.310264945
1.53531177345877E+018,29/08/2018 11:29:33,50.8203697205,-1.310264945
1.53531177353306E+018,29/08/2018 11:29:34,50.8203697205,-1.310264945
1.53531177360627E+018,29/08/2018 11:29:34,50.8203697205,-1.310264945
1.53531177367708E+018,29/08/2018 11:29:34,50.8203697205,-1.310264945
1.5353117737555E+018,29/08/2018 11:29:34,50.8203697205,-1.310264945
1.53531177382835E+018,29/08/2018 11:29:34,50.8203697205,-1.310264945
1.53531177390564E+018,29/08/2018 11:29:34,50.8203697205,-1.310264945
1.53531177397528E+018,29/08/2018 11:29:34,50.8203697205,-1.310264945
1.53531177404973E+018,29/08/2018 11:29:34,50.8203697205,-1.310264945
1.53531177411841E+018,29/08/2018 11:29:34,50.8203697205,-1.310264945
1.53531177420391E+018,29/08/2018 11:29:34,50.8203697205,-1.310264945
1.53531177426651E+018,29/08/2018 11:29:34,50.8203697205,-1.310264945
1.53531177434449E+018,29/08/2018 11:29:34,50.8203697205,-1.310264945
1.53531177441365E+018,29/08/2018 11:29:34,50.8203697205,-1.310264945
1.53531177449304E+018,29/08/2018 11:29:34,50.8203697205,-1.310264945
1.53531177456145E+018,29/08/2018 11:29:35,50.8203697205,-1.310264945
1.53531177463402E+018,29/08/2018 11:29:35,50.8203697205,-1.310264945
1.53531177470492E+018,29/08/2018 11:29:35,50.8203697205,-1.310264945
1.53531177478132E+018,29/08/2018 11:29:35,50.8203697205,-1.310264945
1.53531177485658E+018,29/08/2018 11:29:35,50.8203697205,-1.310264945
1.53531177492998E+018,29/08/2018 11:29:35,50.8203697205,-1.310264945
1.53531177500292E+018,29/08/2018 11:29:35,50.8203697205,-1.310264945
1.53531177507749E+018,29/08/2018 11:29:35,50.8203697205,-1.310264945
1.53531177514644E+018,29/08/2018 11:29:35,50.8203697205,-1.310264945
1.53531177522483E+018,29/08/2018 11:29:35,50.8203697205,-1.310264945
1.5353117752948E+018,29/08/2018 11:29:35,50.8203697205,-1.310264945
1.53531177537213E+018,29/08/2018 11:29:35,50.8203697205,-1.310264945
1.53531177544243E+018,29/08/2018 11:29:35,50.8203697205,-1.310264945
1.53531177551529E+018,29/08/2018 11:29:36,50.8203697205,-1.310264945
1.53531177558444E+018,29/08/2018 11:29:36,50.8203697205,-1.310264945
1.53531177566273E+018,29/08/2018 11:29:36,50.8203697205,-1.310264945
1.53531177573333E+018,29/08/2018 11:29:36,50.8203697205,-1.310264945
1.53531177580987E+018,29/08/2018 11:29:36,50.8203697205,-1.310264945
1.53531177587981E+018,29/08/2018 11:29:36,50.8203697205,-1.310264945
1.53531177595751E+018,29/08/2018 11:29:36,50.8203697205,-1.310264945
1.53531177602703E+018,29/08/2018 11:29:36,50.8203697205,-1.310264945
1.53531177610524E+018,29/08/2018 11:29:36,50.8203697205,-1.310264945
1.5353117761746E+018,29/08/2018 11:29:36,50.8203697205,-1.310264945
1.53531177625228E+018,29/08/2018 11:29:36,50.8203697205,-1.310264945
1.53531177632121E+018,29/08/2018 11:29:36,50.8203697205,-1.310264945
1.53531177640131E+018,29/08/2018 11:29:36,50.8203697205,-1.310264945
1.53531177646983E+018,29/08/2018 11:29:36,50.8203697205,-1.310264945
1.53531177654248E+018,29/08/2018 11:29:37,50.8203697205,-1.310264945
1.53531177661326E+018,29/08/2018 11:29:37,50.8203697205,-1.310264945
1.53531177668988E+018,29/08/2018 11:29:37,50.8203697205,-1.310264945
1.53531177676041E+018,29/08/2018 11:29:37,50.8203697205,-1.310264945
1.53531177683835E+018,29/08/2018 11:29:37,50.8203544617,-1.3102983236
1.53531177691261E+018,29/08/2018 11:29:37,50.8203468323,-1.3103083372
1.53531177699022E+018,29/08/2018 11:29:37,50.8203468323,-1.3103083372
1.53531177705935E+018,29/08/2018 11:29:37,50.8203468323,-1.3103083372
1.53531177713352E+018,29/08/2018 11:29:37,50.8203468323,-1.3103083372
1.53531177720614E+018,29/08/2018 11:29:37,50.8203468323,-1.3103083372
1.53531177728034E+018,29/08/2018 11:29:37,50.8203468323,-1.3103083372
1.53531177735077E+018,29/08/2018 11:29:37,50.8203468323,-1.3103083372
1.53531177742742E+018,29/08/2018 11:29:37,50.8203468323,-1.3103083372
1.53531177750193E+018,29/08/2018 11:29:38,50.8203468323,-1.3103083372
1.53531177757624E+018,29/08/2018 11:29:38,50.8203468323,-1.3103083372
1.53531177764493E+018,29/08/2018 11:29:38,50.8203468323,-1.3103083372
1.53531177771877E+018,29/08/2018 11:29:38,50.8203468323,-1.3103083372
1.53531177779422E+018,29/08/2018 11:29:38,50.8203468323,-1.3103083372
1.5353117778662E+018,29/08/2018 11:29:38,50.8203468323,-1.3103083372
1.53531177794003E+018,29/08/2018 11:29:38,50.8203468323,-1.3103083372
1.53531177801714E+018,29/08/2018 11:29:38,50.8203468323,-1.3103083372
1.53531177808732E+018,29/08/2018 11:29:38,50.8203468323,-1.3103083372
1.53531177816123E+018,29/08/2018 11:29:38,50.8203468323,-1.3103083372
1.53531177823089E+018,29/08/2018 11:29:38,50.8203468323,-1.3103083372
1.53531177830863E+018,29/08/2018 11:29:38,50.8203468323,-1.3103083372
1.53531177837813E+018,29/08/2018 11:29:38,50.8203468323,-1.3103083372
1.53531177845607E+018,29/08/2018 11:29:38,50.8203468323,-1.3103083372
1.53531177852527E+018,29/08/2018 11:29:39,50.8203468323,-1.3103083372
1.53531177860298E+018,29/08/2018 11:29:39,50.8203468323,-1.3103083372
1.53531177867243E+018,29/08/2018 11:29:39,50.8203468323,-1.3103083372
1.53531177874742E+018,29/08/2018 11:29:39,50.8203468323,-1.3103083372
1.53531177882022E+018,29/08/2018 11:29:39,50.8203468323,-1.3103083372
1.53531177890373E+018,29/08/2018 11:29:39,50.8203353882,-1.310331583
1.53531177896771E+018,29/08/2018 11:29:39,50.8203353882,-1.310331583
1.53531177904236E+018,29/08/2018 11:29:39,50.8203353882,-1.310331583
1.53531177911199E+018,29/08/2018 11:29:39,50.8203353882,-1.310331583
1.53531177918906E+018,29/08/2018 11:29:39,50.8203353882,-1.310331583
1.53531177925895E+018,29/08/2018 11:29:39,50.8203353882,-1.310331583
1.53531177933689E+018,29/08/2018 11:29:39,50.8203353882,-1.310331583
1.53531177940637E+018,29/08/2018 11:29:39,50.8203353882,-1.310331583
1.5353117794836E+018,29/08/2018 11:29:39,50.8203353882,-1.310331583
1.53531177955428E+018,29/08/2018 11:29:40,50.8203353882,-1.310331583
1.53531177962693E+018,29/08/2018 11:29:40,50.8203353882,-1.310331583
1.53531177970203E+018,29/08/2018 11:29:40,50.8203353882,-1.310331583
1.53531177977462E+018,29/08/2018 11:29:40,50.8203353882,-1.310331583
1.53531177984526E+018,29/08/2018 11:29:40,50.8203353882,-1.310331583
1.53531177992228E+018,29/08/2018 11:29:40,50.8203353882,-1.310331583
1.53531177999675E+018,29/08/2018 11:29:40,50.8203353882,-1.310331583
1.53531178007049E+018,29/08/2018 11:29:40,50.8203353882,-1.310331583
1.53531178013903E+018,29/08/2018 11:29:40,50.8203353882,-1.310331583
1.53531178021789E+018,29/08/2018 11:29:40,50.8203353882,-1.310331583
1.5353117802865E+018,29/08/2018 11:29:40,50.8203353882,-1.310331583
1.53531178036442E+018,29/08/2018 11:29:40,50.8203353882,-1.310331583
1.53531178043359E+018,29/08/2018 11:29:40,50.8203353882,-1.310331583
1.53531178050792E+018,29/08/2018 11:29:41,50.8203353882,-1.310331583
1.53531178058229E+018,29/08/2018 11:29:41,50.8203353882,-1.310331583
1.53531178065564E+018,29/08/2018 11:29:41,50.8203353882,-1.310331583
1.53531178072471E+018,29/08/2018 11:29:41,50.8203353882,-1.310331583
1.53531178080342E+018,29/08/2018 11:29:41,50.8203353882,-1.310331583
1.53531178087648E+018,29/08/2018 11:29:41,50.8203277588,-1.3103516102
1.53531178095344E+018,29/08/2018 11:29:41,50.8203277588,-1.3103516102
1.53531178102477E+018,29/08/2018 11:29:41,50.8203277588,-1.3103516102
1.53531178109962E+018,29/08/2018 11:29:41,50.8203277588,-1.3103516102
1.53531178116812E+018,29/08/2018 11:29:41,50.8203277588,-1.3103516102
1.53531178124539E+018,29/08/2018 11:29:41,50.8203277588,-1.3103516102
1.53531178131566E+018,29/08/2018 11:29:41,50.8203277588,-1.3103516102
1.53531178139289E+018,29/08/2018 11:29:41,50.8203277588,-1.3103516102
1.53531178146218E+018,29/08/2018 11:29:41,50.8203277588,-1.3103516102
1.53531178153978E+018,29/08/2018 11:29:42,50.8203277588,-1.3103516102
1.53531178160926E+018,29/08/2018 11:29:42,50.8203277588,-1.3103516102
1.53531178168416E+018,29/08/2018 11:29:42,50.8203277588,-1.3103516102
1.53531178175667E+018,29/08/2018 11:29:42,50.8203277588,-1.3103516102
1.5353117818307E+018,29/08/2018 11:29:42,50.8203277588,-1.3103516102
1.53531178190526E+018,29/08/2018 11:29:42,50.8203277588,-1.3103516102
1.53531178198225E+018,29/08/2018 11:29:42,50.8203277588,-1.3103599548
1.53531178205212E+018,29/08/2018 11:29:42,50.8203277588,-1.3103599548
1.53531178213002E+018,29/08/2018 11:29:42,50.8203277588,-1.3103599548
1.53531178220019E+018,29/08/2018 11:29:42,50.8203277588,-1.3103599548
1.5353117822771E+018,29/08/2018 11:29:42,50.8203277588,-1.3103599548
1.53531178234319E+018,29/08/2018 11:29:42,50.8203277588,-1.3103599548
1.53531178242037E+018,29/08/2018 11:29:42,50.8203277588,-1.3103599548
1.5353117824902E+018,29/08/2018 11:29:42,50.8203277588,-1.3103599548
1.53531178256813E+018,29/08/2018 11:29:43,50.8203277588,-1.3103599548
1.53531178263849E+018,29/08/2018 11:29:43,50.8203277588,-1.3103599548
1.53531178271599E+018,29/08/2018 11:29:43,50.8203277588,-1.3103599548
1.53531178278484E+018,29/08/2018 11:29:43,50.8203277588,-1.3103599548
1.5353117828627E+018,29/08/2018 11:29:43,50.8203277588,-1.3103599548
1.53531178293175E+018,29/08/2018 11:29:43,50.8203277588,-1.3103599548
1.53531178301062E+018,29/08/2018 11:29:43,50.8203277588,-1.3103599548
1.5353117830805E+018,29/08/2018 11:29:43,50.8203277588,-1.3103599548
1.53531178315497E+018,29/08/2018 11:29:43,50.8203277588,-1.3103599548
1.53531178322817E+018,29/08/2018 11:29:43,50.8203277588,-1.3103599548
1.53531178330168E+018,29/08/2018 11:29:43,50.8203277588,-1.3103599548
1.53531178337062E+018,29/08/2018 11:29:43,50.8203277588,-1.3103599548
1.5353117834475E+018,29/08/2018 11:29:43,50.8203277588,-1.3103599548
1.5353117835182E+018,29/08/2018 11:29:44,50.8203277588,-1.3103599548
1.53531178359689E+018,29/08/2018 11:29:44,50.8203277588,-1.3103599548
1.53531178366502E+018,29/08/2018 11:29:44,50.8203277588,-1.3103599548
1.535311783744E+018,29/08/2018 11:29:44,50.8203277588,-1.3103599548
1.53531178381353E+018,29/08/2018 11:29:44,50.8203201294,-1.3103733063
1.53531178389065E+018,29/08/2018 11:29:44,50.8203201294,-1.3103733063
1.53531178396058E+018,29/08/2018 11:29:44,50.8203201294,-1.3103733063
1.53531178403952E+018,29/08/2018 11:29:44,50.8203201294,-1.3103733063
1.5353117841085E+018,29/08/2018 11:29:44,50.8203201294,-1.3103733063
1.53531178418624E+018,29/08/2018 11:29:44,50.8203201294,-1.3103733063
1.53531178425641E+018,29/08/2018 11:29:44,50.8203201294,-1.3103733063
1.53531178432902E+018,29/08/2018 11:29:44,50.8203201294,-1.3103733063
1.53531178440303E+018,29/08/2018 11:29:44,50.8203201294,-1.3103733063
1.53531178447599E+018,29/08/2018 11:29:44,50.8203201294,-1.3103733063
1.53531178454652E+018,29/08/2018 11:29:45,50.8203201294,-1.3103733063
1.53531178462319E+018,29/08/2018 11:29:45,50.8203201294,-1.3103733063
1.53531178469474E+018,29/08/2018 11:29:45,50.8203201294,-1.3103733063
1.53531178477222E+018,29/08/2018 11:29:45,50.8203201294,-1.3103733063
1.53531178484167E+018,29/08/2018 11:29:45,50.8203125,-1.3103833199
1.53531178491858E+018,29/08/2018 11:29:45,50.8203125,-1.3103833199
1.53531178498784E+018,29/08/2018 11:29:45,50.8203125,-1.3103833199
1.53531178506613E+018,29/08/2018 11:29:45,50.8203125,-1.3103833199
1.53531178513623E+018,29/08/2018 11:29:45,50.8203125,-1.3103833199
1.53531178520994E+018,29/08/2018 11:29:45,50.8203125,-1.3103833199
1.53531178527979E+018,29/08/2018 11:29:45,50.8203125,-1.3103833199
1.5353117853577E+018,29/08/2018 11:29:45,50.8203125,-1.3103833199
1.53531178542723E+018,29/08/2018 11:29:45,50.8203125,-1.3103833199
